{
    "Austria":
    {
  "city": "Vienna",
  "lat": 48.2082,
  "lng": 16.3738
 },
 "Belgium": {
  "city": "Brussels",
  "lat": 50.8503,
  "lng": 4.3517
 },
 "Bulgaria":{
  "city": "Sofia",
  "lat": 42.6977,
  "lng": 23.3219
 },
 "Croatia":{
  "city": "Zagreb",
  "lat": 45.8150,
  "lng": 15.9819
 },
 "Cyprus":{
  "city": "Nicosia",
  "lat": 35.1856,
  "lng": 33.3823
 },
 "Czech Republic":{
  "city": "Prague",
  "lat": 50.0755,
  "lng": 14.4378
 },
 "Denmark":{
  "city": "Copenhagen",
  "lat": 55.6761,
  "lng": 12.5683
 },
 "Estonia":{
  "city": "Tallinn",
  "lat": 59.4370,
  "lng": 24.7536
 },
 "Finland":{
  "city": "Helsinki",
  "lat": 60.1695,
  "lng": 24.9354
 },
 "France":{
  "city": "Paris",
  "lat": 48.8566,
  "lng": 2.3522
 },
 "Germany":{
  "city": "Berlin",
  "lat": 52.5200,
  "lng": 13.4050
 },
 "Greece":{
  "city": "Athens",
  "lat": 37.9838,
  "lng": 23.7275
 },
 "Hungary":{
  "city": "Budapest",
  "lat": 47.4979,
  "lng": 19.0402
 },
 "Ireland":{
  "city": "Dublin",
  "lat": 53.3498,
  "lng": 6.2603
 },
 "Italy": {
  "city": "Rome",
  "lat": 41.9028,
  "lng": 12.4964
 },
 "Latvia":{
  "city": "Riga",
  "lat": 56.9496,
  "lng": 24.1052
 },
 "Lithuania":{
  "city": "Vilnius",
  "lat": 54.6872,
  "lng": 25.2797
 },
 "Luxembourg":{
  "city": "Luxembourg City",
  "lat": 49.6116,
  "lng": 70.7833
 },
 "Malta": {
  "city": "Valletta",
  "lat": 35.8989,
  "lng": 14.5146
 },
"Netherlands": {
  "city": "Amsterdam",
  "lat": 52.3676,
  "lng": 52.3676
 },
"Poland": {
  "city": "Warsaw",
  "lat": 52.2297,
  "lng": 21.0122
 },
 "Portugal":{
  "city": "Lisbon",
  "lat": 38.7223,
  "lng": 9.1393
 },
 "Romania":{
  "city": "Bucharest",
  "lat": 44.4268,
  "lng": 26.1025
 },
 "Slovakia":{
  "city": "Bratislava",
  "lat": 48.1486,
  "lng": 17.1077
 },
 "Slovenia":{
  "city": "Ljubljana",
  "lat": 46.0569,
  "lng": 14.5058
 },
 "Spain":{
  "city": "Madrid",
  "lat": 40.4168,
  "lng": 3.7038
 },
 "Sweden":{
  "city": "Stockholm",
  "lat": 59.3293,
  "lng": 18.0686
 }
}
